{
"type": "FeatureCollection",
"name": "Tahuna",
"crs": { "type": "name", "properties": { "name": "urn:ogc:def:crs:OGC:1.3:CRS84" } },
"features": [
{ "type": "Feature", "properties": { "OID_": 0, "Name": "ATM  BNI (Tidore)", "x": "125,50443887", "y": "3,60156450500006", "no": 2.0, "landuse": null, "koor_X": "125° 30' 15,980\" E", "Koor_Y": "3° 36' 5,632\" N" }, "geometry": { "type": "Point", "coordinates": [ 125.504438870000058, 3.601564505000056, 0.0 ] } },
{ "type": "Feature", "properties": { "OID_": 0, "Name": "ATM bank Sulut", "x": "125,492864202", "y": "3,61086902600005", "no": 3.0, "landuse": null, "koor_X": "125° 29' 34,311\" E", "Koor_Y": "3° 36' 39,128\" N" }, "geometry": { "type": "Point", "coordinates": [ 125.492864202000078, 3.610869026000046, 0.0 ] } },
{ "type": "Feature", "properties": { "OID_": 0, "Name": "ATM BANK SULUT", "x": "125,505990145", "y": "3,60989004700002", "no": 4.0, "landuse": null, "koor_X": "125° 30' 21,565\" E", "Koor_Y": "3° 36' 35,604\" N" }, "geometry": { "type": "Point", "coordinates": [ 125.505990145000055, 3.609890047000022, 0.0 ] } },
{ "type": "Feature", "properties": { "OID_": 0, "Name": "ATM BNI (Towo'e)", "x": "125,495550003", "y": "3,61098461800003", "no": 5.0, "landuse": null, "koor_X": "125° 29' 43,980\" E", "Koor_Y": "3° 36' 39,545\" N" }, "geometry": { "type": "Point", "coordinates": [ 125.495550003000062, 3.610984618000032, 0.0 ] } },
{ "type": "Feature", "properties": { "OID_": 0, "Name": "ATM BNI Bungalawang", "x": "125,47777598", "y": "3,60873692900003", "no": 6.0, "landuse": null, "koor_X": "125° 28' 39,994\" E", "Koor_Y": "3° 36' 31,453\" N" }, "geometry": { "type": "Point", "coordinates": [ 125.477775980000047, 3.608736929000031, 0.0 ] } },
{ "type": "Feature", "properties": { "OID_": 0, "Name": "ATM BNI Politeknik", "x": "125,487283207", "y": "3,60944591200007", "no": 7.0, "landuse": null, "koor_X": "125° 29' 14,220\" E", "Koor_Y": "3° 36' 34,005\" N" }, "geometry": { "type": "Point", "coordinates": [ 125.487283207000019, 3.609445912000069, 0.0 ] } },
{ "type": "Feature", "properties": { "OID_": 0, "Name": "ATM BRI (Polres)", "x": "125,504950077", "y": "3,61104728700008", "no": 8.0, "landuse": null, "koor_X": "125° 30' 17,820\" E", "Koor_Y": "3° 36' 39,770\" N" }, "geometry": { "type": "Point", "coordinates": [ 125.504950077000103, 3.611047287000076, 0.0 ] } },
{ "type": "Feature", "properties": { "OID_": 0, "Name": "ATM BRI kantor pajak", "x": "125,470405654", "y": "3,61333783800006", "no": 9.0, "landuse": null, "koor_X": "125° 28' 13,460\" E", "Koor_Y": "3° 36' 48,016\" N" }, "geometry": { "type": "Point", "coordinates": [ 125.470405654000047, 3.613337838000064, 0.0 ] } },
{ "type": "Feature", "properties": { "OID_": 0, "Name": "ATM mandiri Lanal", "x": "125,475069125", "y": "3,61101919700008", "no": 10.0, "landuse": null, "koor_X": "125° 28' 30,249\" E", "Koor_Y": "3° 36' 39,669\" N" }, "geometry": { "type": "Point", "coordinates": [ 125.475069125000118, 3.611019197000076, 0.0 ] } },
{ "type": "Feature", "properties": { "OID_": 0, "Name": "Badola Caffe", "x": "125,504034255", "y": "3,60211916100008", "no": 11.0, "landuse": null, "koor_X": "125° 30' 14,523\" E", "Koor_Y": "3° 36' 7,629\" N" }, "geometry": { "type": "Point", "coordinates": [ 125.504034255000079, 3.602119161000076, 0.0 ] } },
{ "type": "Feature", "properties": { "OID_": 0, "Name": "Bank BNI yunit", "x": "125,490640959", "y": "3,61183687000005", "no": 12.0, "landuse": null, "koor_X": "125° 29' 26,307\" E", "Koor_Y": "3° 36' 42,613\" N" }, "geometry": { "type": "Point", "coordinates": [ 125.490640959000075, 3.611836870000047, 0.0 ] } },
{ "type": "Feature", "properties": { "OID_": 0, "Name": "Bank BRI cabang", "x": "125,489501191", "y": "3,61033567700002", "no": 13.0, "landuse": null, "koor_X": "125° 29' 22,204\" E", "Koor_Y": "3° 36' 37,208\" N" }, "geometry": { "type": "Point", "coordinates": [ 125.489501191000045, 3.610335677000023, 0.0 ] } },
{ "type": "Feature", "properties": { "OID_": 0, "Name": "Bank BRI yunit sawang bendar", "x": "125,492612313", "y": "3,60954160100005", "no": 14.0, "landuse": null, "koor_X": "125° 29' 33,404\" E", "Koor_Y": "3° 36' 34,350\" N" }, "geometry": { "type": "Point", "coordinates": [ 125.492612313000109, 3.609541601000046, 0.0 ] } },
{ "type": "Feature", "properties": { "OID_": 0, "Name": "Bank BRI yunit tidore", "x": "125,503653625", "y": "3,61154778000002", "no": 15.0, "landuse": null, "koor_X": "125° 30' 13,153\" E", "Koor_Y": "3° 36' 41,572\" N" }, "geometry": { "type": "Point", "coordinates": [ 125.503653625000084, 3.611547780000024, 0.0 ] } },
{ "type": "Feature", "properties": { "OID_": 0, "Name": "Bank mandiri yunit", "x": "125,49039047", "y": "3,61068912100006", "no": 16.0, "landuse": null, "koor_X": "125° 29' 25,406\" E", "Koor_Y": "3° 36' 38,481\" N" }, "geometry": { "type": "Point", "coordinates": [ 125.490390470000079, 3.610689121000064, 0.0 ] } },
{ "type": "Feature", "properties": { "OID_": 0, "Name": "Bank Sulut yunit", "x": "125,490144946", "y": "3,61059612000003", "no": 17.0, "landuse": null, "koor_X": "125° 29' 24,522\" E", "Koor_Y": "3° 36' 38,146\" N" }, "geometry": { "type": "Point", "coordinates": [ 125.4901449460001, 3.610596120000025, 0.0 ] } },
{ "type": "Feature", "properties": { "OID_": 0, "Name": "Centra Kuliner", "x": "125,487469515", "y": "3,60744553600006", "no": 18.0, "landuse": null, "koor_X": "125° 29' 14,890\" E", "Koor_Y": "3° 36' 26,804\" N" }, "geometry": { "type": "Point", "coordinates": [ 125.487469515000043, 3.607445536000057, 0.0 ] } },
{ "type": "Feature", "properties": { "OID_": 0, "Name": "Coffe & Friends", "x": "125,483074208", "y": "3,60580292900005", "no": 19.0, "landuse": null, "koor_X": "125° 28' 59,067\" E", "Koor_Y": "3° 36' 20,891\" N" }, "geometry": { "type": "Point", "coordinates": [ 125.483074208000062, 3.605802929000049, 0.0 ] } },
{ "type": "Feature", "properties": { "OID_": 0, "Name": "Dialog Hotel", "x": "125,46460482", "y": "3,61417296100007", "no": 20.0, "landuse": null, "koor_X": "125° 27' 52,577\" E", "Koor_Y": "3° 36' 51,023\" N" }, "geometry": { "type": "Point", "coordinates": [ 125.464604820000091, 3.614172961000065, 0.0 ] } },
{ "type": "Feature", "properties": { "OID_": 0, "Name": "Hayana Hotel", "x": "125,467266952", "y": "3,61432314100006", "no": 21.0, "landuse": null, "koor_X": "125° 28' 2,161\" E", "Koor_Y": "3° 36' 51,563\" N" }, "geometry": { "type": "Point", "coordinates": [ 125.467266952000045, 3.614323141000057, 0.0 ] } },
{ "type": "Feature", "properties": { "OID_": 0, "Name": "HOTEL BINTANG UTARA", "x": "125,506648863", "y": "3,60810617100003", "no": 22.0, "landuse": null, "koor_X": "125° 30' 23,936\" E", "Koor_Y": "3° 36' 29,182\" N" }, "geometry": { "type": "Point", "coordinates": [ 125.506648863, 3.608106171000031, 0.0 ] } },
{ "type": "Feature", "properties": { "OID_": 0, "Name": "Hotel madina", "x": "125,504789086", "y": "3,60230131300006", "no": 23.0, "landuse": null, "koor_X": "125° 30' 17,241\" E", "Koor_Y": "3° 36' 8,285\" N" }, "geometry": { "type": "Point", "coordinates": [ 125.504789086000073, 3.602301313000055, 0.0 ] } },
{ "type": "Feature", "properties": { "OID_": 0, "Name": "Hotel Mafana Seaside", "x": "125,481478162", "y": "3,60561399800002", "no": 24.0, "landuse": null, "koor_X": "125° 28' 53,321\" E", "Koor_Y": "3° 36' 20,210\" N" }, "geometry": { "type": "Point", "coordinates": [ 125.48147816200003, 3.605613998000024, 0.0 ] } },
{ "type": "Feature", "properties": { "OID_": 0, "Name": "Hotel Wisma Melia", "x": "125,498385844", "y": "3,61184988200006", "no": 25.0, "landuse": null, "koor_X": "125° 29' 54,189\" E", "Koor_Y": "3° 36' 42,660\" N" }, "geometry": { "type": "Point", "coordinates": [ 125.49838584400004, 3.611849882000058, 0.0 ] } },
{ "type": "Feature", "properties": { "OID_": 0, "Name": "Kantin Cisco", "x": "125,48387016", "y": "3,60593482100006", "no": 27.0, "landuse": null, "koor_X": "125° 29' 1,933\" E", "Koor_Y": "3° 36' 21,365\" N" }, "geometry": { "type": "Point", "coordinates": [ 125.483870160000038, 3.605934821000062, 0.0 ] } },
{ "type": "Feature", "properties": { "OID_": 0, "Name": "Kedai Rengas", "x": "125,503939315", "y": "3,60596715500003", "no": 28.0, "landuse": null, "koor_X": "125° 30' 14,182\" E", "Koor_Y": "3° 36' 21,482\" N" }, "geometry": { "type": "Point", "coordinates": [ 125.503939315000025, 3.60596715500003, 0.0 ] } },
{ "type": "Feature", "properties": { "OID_": 0, "Name": "Kings Food cafe &Delivery", "x": "125,487136106", "y": "3,60704030700003", "no": 29.0, "landuse": null, "koor_X": "125° 29' 13,690\" E", "Koor_Y": "3° 36' 25,345\" N" }, "geometry": { "type": "Point", "coordinates": [ 125.487136106000094, 3.607040307000034, 0.0 ] } },
{ "type": "Feature", "properties": { "OID_": 0, "Name": "Megaria link santiago", "x": "125,466335316", "y": "3,61448475200007", "no": 30.0, "landuse": null, "koor_X": "125° 27' 58,807\" E", "Koor_Y": "3° 36' 52,145\" N" }, "geometry": { "type": "Point", "coordinates": [ 125.466335316000027, 3.614484752000067, 0.0 ] } },
{ "type": "Feature", "properties": { "OID_": 0, "Name": "Megaria link tidore", "x": "125,503406193", "y": "3,61092249800004", "no": 31.0, "landuse": null, "koor_X": "125° 30' 12,262\" E", "Koor_Y": "3° 36' 39,321\" N" }, "geometry": { "type": "Point", "coordinates": [ 125.503406193000046, 3.610922498000036, 0.0 ] } },
{ "type": "Feature", "properties": { "OID_": 0, "Name": "Megaria Tahuna", "x": "125,491970136", "y": "3,60898941500005", "no": 32.0, "landuse": null, "koor_X": "125° 29' 31,092\" E", "Koor_Y": "3° 36' 32,362\" N" }, "geometry": { "type": "Point", "coordinates": [ 125.491970136000077, 3.608989415000053, 0.0 ] } },
{ "type": "Feature", "properties": { "OID_": 0, "Name": "mensyen house", "x": "125,491897974", "y": "3,61218329900004", "no": 33.0, "landuse": null, "koor_X": "125° 29' 30,833\" E", "Koor_Y": "3° 36' 43,860\" N" }, "geometry": { "type": "Point", "coordinates": [ 125.49189797400004, 3.612183299000037, 0.0 ] } },
{ "type": "Feature", "properties": { "OID_": 0, "Name": "Mercuri", "x": "125,478672796", "y": "3,60633360900005", "no": 34.0, "landuse": null, "koor_X": "125° 28' 43,222\" E", "Koor_Y": "3° 36' 22,801\" N" }, "geometry": { "type": "Point", "coordinates": [ 125.478672796000069, 3.606333609000046, 0.0 ] } },
{ "type": "Feature", "properties": { "OID_": 0, "Name": "Nasional Hotel", "x": "125,495066388", "y": "3,61043286900002", "no": 35.0, "landuse": null, "koor_X": "125° 29' 42,239\" E", "Koor_Y": "3° 36' 37,558\" N" }, "geometry": { "type": "Point", "coordinates": [ 125.495066388000055, 3.610432869000022, 0.0 ] } },
{ "type": "Feature", "properties": { "OID_": 0, "Name": "Penginapan anggrek", "x": "125,489851058", "y": "3,61054010900006", "no": 36.0, "landuse": null, "koor_X": "125° 29' 23,464\" E", "Koor_Y": "3° 36' 37,944\" N" }, "geometry": { "type": "Point", "coordinates": [ 125.489851058000113, 3.610540109000056, 0.0 ] } },
{ "type": "Feature", "properties": { "OID_": 0, "Name": "Penginapan Nusa Utara", "x": "125,505152277", "y": "3,60709566800006", "no": 37.0, "landuse": null, "koor_X": "125° 30' 18,548\" E", "Koor_Y": "3° 36' 25,544\" N" }, "geometry": { "type": "Point", "coordinates": [ 125.505152277000093, 3.607095668000056, 0.0 ] } },
{ "type": "Feature", "properties": { "OID_": 0, "Name": "Penginapan Setia", "x": "125,488409727", "y": "3,60919539700006", "no": 38.0, "landuse": null, "koor_X": "125° 29' 18,275\" E", "Koor_Y": "3° 36' 33,103\" N" }, "geometry": { "type": "Point", "coordinates": [ 125.488409727000089, 3.609195397000065, 0.0 ] } },
{ "type": "Feature", "properties": { "OID_": 0, "Name": "Pinggir jalan", "x": "125,503979187", "y": "3,60189784500005", "no": 39.0, "landuse": null, "koor_X": "125° 30' 14,325\" E", "Koor_Y": "3° 36' 6,832\" N" }, "geometry": { "type": "Point", "coordinates": [ 125.503979187000027, 3.601897845000053, 0.0 ] } },
{ "type": "Feature", "properties": { "OID_": 0, "Name": "Remang-remang/Kedai Kopi", "x": "125,490441936", "y": "3,60865397300006", "no": 40.0, "landuse": null, "koor_X": "125° 29' 25,591\" E", "Koor_Y": "3° 36' 31,154\" N" }, "geometry": { "type": "Point", "coordinates": [ 125.490441936000025, 3.60865397300006, 0.0 ] } },
{ "type": "Feature", "properties": { "OID_": 0, "Name": "Resto Masakan Padang Tahuna Baru", "x": "125,494067656", "y": "3,60920077900005", "no": 41.0, "landuse": null, "koor_X": "125° 29' 38,644\" E", "Koor_Y": "3° 36' 33,123\" N" }, "geometry": { "type": "Point", "coordinates": [ 125.494067656000084, 3.609200779000048, 0.0 ] } },
{ "type": "Feature", "properties": { "OID_": 0, "Name": "RM selera bahari", "x": "125,504059238", "y": "3,60233196800004", "no": 42.0, "landuse": null, "koor_X": "125° 30' 14,613\" E", "Koor_Y": "3° 36' 8,395\" N" }, "geometry": { "type": "Point", "coordinates": [ 125.504059238000082, 3.602331968000044, 0.0 ] } },
{ "type": "Feature", "properties": { "OID_": 0, "Name": "RM. Aldus", "x": "125,504494578", "y": "3,60082372300008", "no": 43.0, "landuse": null, "koor_X": "125° 30' 16,180\" E", "Koor_Y": "3° 36' 2,965\" N" }, "geometry": { "type": "Point", "coordinates": [ 125.504494578000049, 3.600823723000076, 0.0 ] } },
{ "type": "Feature", "properties": { "OID_": 0, "Name": "RM. Cha-cha Mania", "x": "125,488280318", "y": "3,60819639500005", "no": 44.0, "landuse": null, "koor_X": "125° 29' 17,809\" E", "Koor_Y": "3° 36' 29,507\" N" }, "geometry": { "type": "Point", "coordinates": [ 125.488280318000079, 3.60819639500005, 0.0 ] } },
{ "type": "Feature", "properties": { "OID_": 0, "Name": "RM. Daseng Goroho", "x": "125,48793032", "y": "3,60784962600007", "no": 45.0, "landuse": null, "koor_X": "125° 29' 16,549\" E", "Koor_Y": "3° 36' 28,259\" N" }, "geometry": { "type": "Point", "coordinates": [ 125.487930320000032, 3.607849626000075, 0.0 ] } },
{ "type": "Feature", "properties": { "OID_": 0, "Name": "RM. Embo Aso Apes", "x": "125,484664633", "y": "3,60602241300006", "no": 46.0, "landuse": null, "koor_X": "125° 29' 4,793\" E", "Koor_Y": "3° 36' 21,681\" N" }, "geometry": { "type": "Point", "coordinates": [ 125.484664633000079, 3.606022413000062, 0.0 ] } },
{ "type": "Feature", "properties": { "OID_": 0, "Name": "RM. Gisella", "x": "125,504753941", "y": "3,60089761400008", "no": 47.0, "landuse": null, "koor_X": "125° 30' 17,114\" E", "Koor_Y": "3° 36' 3,231\" N" }, "geometry": { "type": "Point", "coordinates": [ 125.504753941000104, 3.600897614000075, 0.0 ] } },
{ "type": "Feature", "properties": { "OID_": 0, "Name": "RM. Hapi Kanarang", "x": "125,505606408", "y": "3,60097569900006", "no": 48.0, "landuse": null, "koor_X": "125° 30' 20,183\" E", "Koor_Y": "3° 36' 3,513\" N" }, "geometry": { "type": "Point", "coordinates": [ 125.505606408000062, 3.60097569900006, 0.0 ] } },
{ "type": "Feature", "properties": { "OID_": 0, "Name": "RM. Hosana", "x": "125,486247849", "y": "3,60647329600005", "no": 49.0, "landuse": null, "koor_X": "125° 29' 10,492\" E", "Koor_Y": "3° 36' 23,304\" N" }, "geometry": { "type": "Point", "coordinates": [ 125.486247849000051, 3.606473296000047, 0.0 ] } },
{ "type": "Feature", "properties": { "OID_": 0, "Name": "RM. Palo Sandiri", "x": "125,505292169", "y": "3,60095605600003", "no": 50.0, "landuse": null, "koor_X": "125° 30' 19,052\" E", "Koor_Y": "3° 36' 3,442\" N" }, "geometry": { "type": "Point", "coordinates": [ 125.505292169000086, 3.60095605600003, 0.0 ] } },
{ "type": "Feature", "properties": { "OID_": 0, "Name": "RM. Paradise Mangrove", "x": "125,504427484", "y": "3,60085985300003", "no": 51.0, "landuse": null, "koor_X": "125° 30' 15,939\" E", "Koor_Y": "3° 36' 3,095\" N" }, "geometry": { "type": "Point", "coordinates": [ 125.504427484000075, 3.600859853000031, 0.0 ] } },
{ "type": "Feature", "properties": { "OID_": 0, "Name": "RM. Rage indri", "x": "125,487869333", "y": "3,60775895600005", "no": 52.0, "landuse": null, "koor_X": "125° 29' 16,330\" E", "Koor_Y": "3° 36' 27,932\" N" }, "geometry": { "type": "Point", "coordinates": [ 125.487869333000049, 3.607758956000055, 0.0 ] } },
{ "type": "Feature", "properties": { "OID_": 0, "Name": "RM. Sari Laut", "x": "125,490736733", "y": "3,60864736600007", "no": 53.0, "landuse": null, "koor_X": "125° 29' 26,652\" E", "Koor_Y": "3° 36' 31,131\" N" }, "geometry": { "type": "Point", "coordinates": [ 125.490736733000062, 3.608647366000071, 0.0 ] } },
{ "type": "Feature", "properties": { "OID_": 0, "Name": "RM. Selo Kalaeng", "x": "125,505036931", "y": "3,60092962100003", "no": 54.0, "landuse": null, "koor_X": "125° 30' 18,133\" E", "Koor_Y": "3° 36' 3,347\" N" }, "geometry": { "type": "Point", "coordinates": [ 125.505036931000063, 3.600929621000034, 0.0 ] } },
{ "type": "Feature", "properties": { "OID_": 0, "Name": "RM. Sunrise Kitchen", "x": "125,504930123", "y": "3,60094827800003", "no": 55.0, "landuse": null, "koor_X": "125° 30' 17,748\" E", "Koor_Y": "3° 36' 3,414\" N" }, "geometry": { "type": "Point", "coordinates": [ 125.504930123, 3.600948278000033, 0.0 ] } },
{ "type": "Feature", "properties": { "OID_": 0, "Name": "RM. sunset", "x": "125,502160423", "y": "3,60948418500004", "no": 56.0, "landuse": null, "koor_X": "125° 30' 7,778\" E", "Koor_Y": "3° 36' 34,143\" N" }, "geometry": { "type": "Point", "coordinates": [ 125.502160423000078, 3.609484185000042, 0.0 ] } },
{ "type": "Feature", "properties": { "OID_": 0, "Name": "RM. Tamo", "x": "125,503057417", "y": "3,60826570700004", "no": 57.0, "landuse": null, "koor_X": "125° 30' 11,007\" E", "Koor_Y": "3° 36' 29,757\" N" }, "geometry": { "type": "Point", "coordinates": [ 125.503057417000036, 3.608265707000044, 0.0 ] } },
{ "type": "Feature", "properties": { "OID_": 0, "Name": "RM.ma cerly", "x": "125,484675884", "y": "3,60601943500006", "no": 58.0, "landuse": null, "koor_X": "125° 29' 4,833\" E", "Koor_Y": "3° 36' 21,670\" N" }, "geometry": { "type": "Point", "coordinates": [ 125.484675884000012, 3.606019435000064, 0.0 ] } },
{ "type": "Feature", "properties": { "OID_": 0, "Name": "Rumah Merah", "x": "125,504379571", "y": "3,60381161400005", "no": 59.0, "landuse": null, "koor_X": "125° 30' 15,766\" E", "Koor_Y": "3° 36' 13,722\" N" }, "geometry": { "type": "Point", "coordinates": [ 125.504379571000072, 3.603811614000051, 0.0 ] } },
{ "type": "Feature", "properties": { "OID_": 0, "Name": "Sabilah Caffe", "x": "125,503998811", "y": "3,60568012100003", "no": 60.0, "landuse": null, "koor_X": "125° 30' 14,396\" E", "Koor_Y": "3° 36' 20,448\" N" }, "geometry": { "type": "Point", "coordinates": [ 125.503998811000088, 3.605680121000034, 0.0 ] } },
{ "type": "Feature", "properties": { "OID_": 0, "Name": "Sarayi Kitchen", "x": "125,504094068", "y": "3,60536756000005", "no": 61.0, "landuse": null, "koor_X": "125° 30' 14,739\" E", "Koor_Y": "3° 36' 19,323\" N" }, "geometry": { "type": "Point", "coordinates": [ 125.504094068000086, 3.605367560000047, 0.0 ] } },
{ "type": "Feature", "properties": { "OID_": 0, "Name": "Tahuna Hotel", "x": "125,498177656", "y": "3,61199606600007", "no": 62.0, "landuse": null, "koor_X": "125° 29' 53,440\" E", "Koor_Y": "3° 36' 43,186\" N" }, "geometry": { "type": "Point", "coordinates": [ 125.498177656000053, 3.611996066000074, 0.0 ] } },
{ "type": "Feature", "properties": { "OID_": 0, "Name": "Taman Lalu Lintas Bawa Laut Sangihe", "x": "125,490667296", "y": "3,60850466100004", "no": 63.0, "landuse": null, "koor_X": "125° 29' 26,402\" E", "Koor_Y": "3° 36' 30,617\" N" }, "geometry": { "type": "Point", "coordinates": [ 125.490667296000083, 3.60850466100004, 0.0 ] } },
{ "type": "Feature", "properties": { "OID_": 0, "Name": "TIC", "x": "125,491831587", "y": "3,60886135900006", "no": 64.0, "landuse": null, "koor_X": "125° 29' 30,594\" E", "Koor_Y": "3° 36' 31,901\" N" }, "geometry": { "type": "Point", "coordinates": [ 125.491831587000092, 3.608861359000059, 0.0 ] } }
]
}
